[{"id":"recL1WV82pXaRBQ59","type":"place","slug":"jerusalem_636","label":"Jerusalem","subtitle":"City","count":754,"lat":31.776667,"lon":35.234167,"description":"called also Salem, Ariel, Jebus, the \"city of God,\" the \"holy city;\" by the modern Arabs el-Khuds, meaning \"the holy;\" once \"the city of Judah\" ( 2 Chronicles 25:28 ). This name is"},{"id":"recfrXyxhuYOczKTm","type":"place","slug":"egypt_362","label":"Egypt","subtitle":"Region","count":564,"lat":26.4902014068366,"lon":29.88079617,"description":"the land of the Nile and the pyramids, the oldest kingdom of which we have any record, holds a place of great significance in Scripture. The Egyptians belonged to the white race, a"},{"id":"recpqKANUDcRgN4HU","type":"place","slug":"babylon_151","label":"Babylon","subtitle":"City","count":255,"lat":32.53617,"lon":44.42082,"description":"the Greek form of BABEL; Semitic form Babilu, meaning \"The Gate of God.\" In the Assyrian tablets it means \"The city of the dispersion of the tribes.\" The monumental list of its kin"},{"id":"rec5dSSsOutWlH2fW","type":"place","slug":"jordan_653","label":"Jordan","subtitle":"Water","count":177,"lat":33.1864496,"lon":35.6191595,"description":"But besides these two historical fountains there is a third, called the Hasbany, which rises in the bottom of a valley at the western base of Hermon, 12 miles north of Tell-el-Kady"},{"id":"recUn6eVJDoG4xI0j","type":"place","slug":"moab_815","label":"Moab","subtitle":"Region","count":148,"lat":31.499159,"lon":35.780512,"description":"The land of Moab (Jer. 48:24), called also the “country of Moab” (Ruth 1:2, 6; 2:6), on the east of Jordan and the Dead Sea, and south of the Arnon (Num. 21:13, 26). In a wider sen"},{"id":"reczPjeq0UdahiRrn","type":"place","slug":"zion_1263","label":"Zion","subtitle":"Mountain","count":140,"lat":31.776667,"lon":35.234167,"description":"Sunny; height, one of the eminences on which Jerusalem was built. It was surrounded on all sides, except the north, by deep valleys, that of the Tyropoeon (q.v.) separating it from"},{"id":"recIJFRcqI6KbKgXb","type":"place","slug":"assyria_111","label":"Assyria","subtitle":"Region","count":116,"lat":36.50969,"lon":43.2282,"description":"The name derived from the city Asshur on the Tigris, the original capital of the country, was originally a colony from Babylonia, and was ruled by viceroys from that kingdom. It wa"},{"id":"recEP3QZ3HUmIkv4Q","type":"place","slug":"samaria_1022","label":"Samaria","subtitle":"Region","count":114,"lat":32.331417,"lon":35.228586,"description":"a watch-mountain or a watch-tower. In the heart of the mountains of Israel, a few miles north-west of Shechem, stands the \"hill of Shomeron,\" a solitary mountain, a great \"mamelon."},{"id":"recPoImnA7S93jcHx","type":"place","slug":"gilead_475","label":"Gilead","subtitle":"Region","count":80,"lat":32.75,"lon":35.75,"description":"Hill of testimony, (Gen. 31:21), a mountainous region east of Jordan. From its mountainous character it is called “the mount of Gilead” (Gen. 31:25). It is called also “the land of"},{"id":"recLcxRZbz3yIQB7b","type":"place","slug":"edom_357","label":"Edom","subtitle":"Region","count":79,"lat":31.25,"lon":34.75,"description":"Idumea (Isa. 34:5, 6; Ezek. 35:15). “The field of Edom” (Gen. 32:3), “the land of Edom” (Gen. 36:16), was mountainous (Obad. 1:8, 9, 19, 21). It was called the land, or “the mounta"},{"id":"recRxBBePxyyV6TFO","type":"place","slug":"canaan_272","label":"Canaan","subtitle":"Region","count":76,"lat":31.69352950368834,"lon":34.84388288576839,"description":"The country which derived its name from the preceding. The name as first used by the Phoenicians denoted only the maritime plain on which Sidon was built. But in the time of Moses "},{"id":"recEoYRAyVeAancS0","type":"place","slug":"syria_1122","label":"Syria","subtitle":"Region","count":64,"lat":37.5,"lon":37.5,"description":"(Heb. Aram), the name in the Old Testament given to the whole country which lay to the north-east of Phoenicia, extending to beyond the Euphrates and the Tigris. Mesopotamia is cal"},{"id":"recmL1lWBqWP3mAq3","type":"place","slug":"galilee_433","label":"Galilee","subtitle":"Region","count":63,"lat":32.70674542474383,"lon":35.30152807767973,"description":"circuit. Solomon rewarded Hiram for certain services rendered him by the gift of an upland plain among the mountains of Naphtali. Hiram was dissatisfied with the gift, and called i"},{"id":"recJK76HLZSOzxTWW","type":"place","slug":"bethel_202","label":"Bethel (of Palestine)","subtitle":"Place","count":62,"lat":31.93053921,"lon":35.22103275,"description":"A place in Central Palestine, about 10 miles north of Jerusalem, at the head of the pass of Michmash and Ai. It was originally the royal Canaanite city of Luz (Gen. 28:19). The nam"},{"id":"recdMHFSmu222VnJG","type":"place","slug":"jericho_634","label":"Jericho","subtitle":"City","count":58,"lat":31.8700465,"lon":35.443876,"description":"Place of fragrance, a fenced city in the midst of a vast grove of palm trees, in the plain of Jordan, over against the place where that river was crossed by the Israelites (Josh. 3"},{"id":"recJSfVnIcPibY6aX","type":"place","slug":"hebron_551","label":"Hebron","subtitle":"City","count":56,"lat":31.524354,"lon":35.108539,"description":"A city in the south end of the valley of Eshcol, about midway between Jerusalem and Beersheba, from which it is distant about 20 miles in a straight line. It was built “seven years"},{"id":"recCXgnK86jc1U9IB","type":"place","slug":"lebanon_720","label":"Lebanon","subtitle":"Region","count":56,"lat":33.9215361440169,"lon":35.89897373,"description":"White, “the white mountain of Syria,” is the loftiest and most celebrated mountain range in Syria. It is a branch running southward from the Caucasus, and at its lower end forking "},{"id":"recR67sC02MfTx4al","type":"place","slug":"damascus_322","label":"Damascus","subtitle":"City","count":55,"lat":33.511612,"lon":36.309102,"description":"activity, the most ancient of Oriental cities; the capital of Syria ( Isaiah 7:8 ; 17:3 ); situated about 133 miles to the north of Jerusalem. Its modern name is Esh-Sham; i.e., \"t"},{"id":"recgdvRbWEPMp5I0z","type":"place","slug":"bashan_159","label":"Bashan","subtitle":"Region","count":52,"lat":32.80007552505443,"lon":35.93730130476259,"description":"Light soil, first mentioned in Gen. 14:5, where it is said that Chedorlaomer and his confederates “smote the Rephaim in Ashteroth,” where Og the king of Bashan had his residence. A"},{"id":"reco9Wc4YyNXZq43z","type":"place","slug":"tyre_1184","label":"Tyre","subtitle":"City","count":52,"lat":33.268071,"lon":35.209358,"description":"a rock, now es-Sur; an ancient Phoenician city, about 23 miles, in a direct line, north of Acre, and 20 south of Sidon. Sidon was the oldest Phoenician city, but Tyre had a longer "},{"id":"recEwQ7ucCWe9yVvi","type":"place","slug":"sodom_1107","label":"Sodom","subtitle":"City","count":47,"lat":31.19656033,"lon":35.39648412,"description":"Burning; the walled, a city in the vale of Siddim (Gen. 13:10; 14:1-16). The wickedness of its inhabitants brought down upon it fire from heaven, by which it was destroyed (18:16-3"},{"id":"recAalC2QoLT7cJKN","type":"place","slug":"judea_657","label":"Judea","subtitle":"Region","count":44,"lat":31.777444,"lon":35.234935,"description":"After the Captivity this name was applied to the whole of the country west of the Jordan ( Haggai 1:1 Haggai 1:14 ; 2:2 ). But under the Romans, in the time of Christ, it denoted t"},{"id":"recBZhqAvy5xhTNRn","type":"place","slug":"midian_796","label":"Midian","subtitle":"Region","count":44,"lat":28.75,"lon":34.75,"description":"An Arabian tribe descended from Midian. They inhabited principally the desert north of the peninsula of Arabia. The peninsula of Sinai was the pasture-ground for their flocks. They"},{"id":"recADz5cMmoTWAEzV","type":"place","slug":"gibeah_466","label":"Gibeah","subtitle":"Place","count":41,"lat":31.82378102,"lon":35.23100936,"description":"A hill or hill-town, “of Benjamin” (1 Sam. 13:15), better known as “Gibeah of Saul” (11:4; Isa. 10:29). It was here that the terrible outrage was committed on the Levite’s concubin"},{"id":"recUySlrBva4ffoVs","type":"place","slug":"shechem_1069","label":"Shechem","subtitle":"City","count":40,"lat":32.22111,"lon":35.25444,"description":"A city in Samaria (Gen. 33:18), called also Sichem (12:6), Sychem (Acts 7:16). It stood in the narrow sheltered valley between Ebal on the north and Gerizim on the south, these mou"},{"id":"recabsaJkxxtgdUSt","type":"place","slug":"heshbon_565","label":"Heshbon","subtitle":"City","count":37,"lat":31.79819,"lon":35.80986,"description":"Intelligence, a city ruled over by Sihon, king of the Amorites (Josh. 3:10; 13:17). It was taken by Moses (Num. 21:23-26), and became afterwards a Levitical city (Josh. 21:39) in t"},{"id":"recsX4et9ux7g07Zg","type":"place","slug":"negeb_885","label":"Negeb","subtitle":"Region","count":36,"lat":30.25,"lon":34.75,"description":"Heb. Negeb, that arid district to the south of Palestine through which lay the caravan route from Central Palestine to Egypt (Gen. 12:9; 13:1, 3; 46:1-6). “The Negeb comprised a co"},{"id":"recYsXWjhw6FUqHLY","type":"place","slug":"gibeon_470","label":"Gibeon","subtitle":"City","count":35,"lat":31.84668,"lon":35.1852,"description":"Hill-city, “one of the royal cities, greater than Ai, and all the men thereof were mighty” (Josh. 10:2). Its inhabitants were Hivites (11:19). It lay within the territory of Benjam"},{"id":"recdm9AlLF01lFAfP","type":"place","slug":"gilgal_476","label":"Gilgal","subtitle":"City","count":35,"lat":32.1547,"lon":34.95372,"description":"From the solemn transaction of the reading of the law in the valley of Shechem between Ebal and Gerizim the Israelites moved forward to Gilgal, and there made a permanent camp (Jos"},{"id":"rectrAkGtrZH5LMp8","type":"place","slug":"beersheba_170","label":"Beersheba","subtitle":"City","count":32,"lat":31.245,"lon":34.84068,"description":"Well of the oath, or well of seven, a well dug by Abraham, and so named because he and Abimelech here entered into a compact (Gen. 21:31). On re-opening it, Isaac gave it the same "},{"id":"rec81f3wE4gATsRRE","type":"place","slug":"bethlehem_218","label":"Bethlehem","subtitle":"City","count":32,"lat":31.70431,"lon":35.20746,"description":"A city in the “hill country” of Judah. It was originally called Ephrath (Gen. 35:16, 19; 48:7; Ruth 4:11). It was also called Beth-lehem Ephratah (Micah 5:2), Beth-lehem-judah (1 S"},{"id":"recJ0N5yStBk9CjXA","type":"place","slug":"euphrates_421","label":"Euphrates","subtitle":"Water","count":32,"lat":34.74942377777777,"lon":40.93640094,"description":"Hebrew, Perath; Assyrian, Purat; Persian cuneiform, Ufratush, whence Greek Euphrates, meaning “sweet water.” The Assyrian name means “the stream,” or “the great stream.” It is gene"},{"id":"recDWNfN3f6E04V4m","type":"place","slug":"gath_442","label":"Gath","subtitle":"City","count":32,"lat":31.6935295,"lon":34.84388289,"description":"A wine-vat, one of the five royal cities of the Philistines (Josh. 13:3) on which the ark brought calamity (1 Sam. 5:8, 9; 6:17). It was famous also as being the birthplace or resi"},{"id":"recedRWoiFNdeGFm4","type":"place","slug":"ai_36","label":"Ai","subtitle":"City","count":31,"lat":31.9166759,"lon":35.2615767,"description":"One of the royal cities of the Canaanites (Josh. 10:1; Gen. 12:8; 13:3). It was the scene of Joshua’s defeat, and afterwards of his victory. It was the second Canaanite city taken "},{"id":"recGdQVod5SbLO87Z","type":"place","slug":"mizpah_811","label":"Mizpah","subtitle":"City","count":30,"lat":31.83273947,"lon":35.18016286,"description":"A city of Benjamin, “the watch-tower”, where the people were accustomed to meet in great national emergencies (Josh. 18:26; Judg. 20:1, 3; 21:1, 5; 1 Sam. 7:5-16). It has been supp"},{"id":"rec1RMZhQrrzq5oHJ","type":"place","slug":"nile_895","label":"Nile","subtitle":"Water","count":30,"lat":19.211408766666665,"lon":30.56732963,"description":"Dark; blue, not found in Scripture, but frequently referred to in the Old Testament under the name of Sihor, i.e., “the black stream” (Isa. 23:3; Jer. 2:18) or simply “the river” ("},{"id":"recPt1Ig1xZkj2YWS","type":"place","slug":"shiloh_1081","label":"Shiloh","subtitle":"City","count":30,"lat":32.05617,"lon":35.28988,"description":"Generally understood as denoting the Messiah, “the peaceful one,” as the word signifies (Gen. 49:10). The Vulgate Version translates the word, “he who is to be sent,” in allusion t"},{"id":"recxiSg5QZWkj9Hy3","type":"place","slug":"sidon_1093","label":"Sidon","subtitle":"City","count":30,"lat":33.560243,"lon":35.371208,"description":"fishing; fishery, Gen 10:15,19(A.V. marg., Tzidon; RSV, Zidon); Matthew 11:21 Matthew 11:22 ; Luke 6:17 . (See ZIDON .)"},{"id":"recmRfnw4XzPBH9jc","type":"place","slug":"nazareth_878","label":"Nazareth","subtitle":"City","count":28,"lat":32.701029,"lon":35.300148,"description":"separated, generally supposed to be the Greek form of the Hebrew <i> netser</i> , a \"shoot\" or \"sprout.\" Some, however, think that the name of the city must be connected with the n"},{"id":"recDQoz6r4QxWn5E3","type":"place","slug":"red_sea_986","label":"Red Sea","subtitle":"Water","count":26,"lat":19,"lon":39.5,"description":"The sea so called extends along the west coast of Arabia for about 1,400 miles, and separates Asia from Africa. It is connected with the Indian Ocean, of which it is an arm, by the"},{"id":"rec1TAitFuG2xVnbt","type":"place","slug":"persia_938","label":"Persia","subtitle":"Region","count":25,"lat":34.798311,"lon":48.514966,"description":"An ancient empire, extending from the Indus to Thrace, and from the Caspian Sea to the Red Sea and the Persian Gulf. The Persians were originally a Medic tribe which settled in Per"},{"id":"rec9FmVbRkqnkXn8n","type":"place","slug":"seir_1042","label":"Seir","subtitle":"Region","count":24,"lat":30.734691,"lon":35.60625,"description":"The name of a mountainous region occupied by the Edomites, extending along the eastern side of the Arabah from the south-eastern extremity of the Dead Sea to near the Akabah, or th"},{"id":"rec34nlC2Rt0dlYyu","type":"place","slug":"gomorrah_489","label":"Gomorrah","subtitle":"City","count":23,"lat":31.15724867,"lon":35.47395433,"description":"Submersion, one of the five cities of the plain of Siddim (q.v.) which were destroyed by fire (Gen. 10:19; 13:10; 19:24, 28). These cities probably stood close together, and were n"},{"id":"recA34XfYsCxhyu31","type":"place","slug":"hamath_516","label":"Hamath","subtitle":"City","count":23,"lat":35.1359,"lon":36.7495,"description":"Fortress, the capital of one of the kingdoms of Upper Syria of the same name, on the Orontes, in the valley of Lebanon, at the northern boundary of Palestine (Num. 13:21; 34:8), at"},{"id":"reca2kSTlowovUOD4","type":"place","slug":"carmel_278","label":"Carmel","subtitle":"City","count":22,"lat":31.422876,"lon":35.132952,"description":"A town in the hill country of Judah (Josh. 15:55), the residence of Nabal (1 Sam. 25:2, 5, 7, 40), and the native place of Abigail, who became David’s wife (1 Sam. 27:3). Here king"},{"id":"reczRCunsz83wZ1Q1","type":"place","slug":"jezreel_643","label":"Jezreel","subtitle":"Place","count":22,"lat":32.502074,"lon":35.50196,"description":"A town of Issachar (Josh. 19:18), where the kings of Israel often resided (1 Kings 18:45; 21:1; 2 Kings 9:30). Here Elijah met Ahab, Jehu, and Bidkar; and here Jehu executed his dr"},{"id":"recH30EhVzvnkXBTl","type":"place","slug":"lachish_711","label":"Lachish","subtitle":"City","count":22,"lat":31.56522,"lon":34.84907,"description":"Impregnable, a royal Canaanitish city in the Shephelah, or maritime plain of Palestine (Josh. 10:3, 5; 12:11). It was taken and destroyed by the Israelites (Josh. 10:31-33). It aft"},{"id":"recly2TmP9CBHh8OQ","type":"place","slug":"macedonia_747","label":"Macedonia","subtitle":"Region","count":21,"lat":40.73291797607738,"lon":22.9351994,"description":"in New Testament times, was a Roman province lying north of Greece. It was governed by a propraetor with the title of proconsul. Paul was summoned by the vision of the \"man of Mace"},{"id":"rechZwu8ZbWlB6fyU","type":"place","slug":"mount_zion_860","label":"Mount Zion","subtitle":"Mountain","count":21,"lat":31.776667,"lon":35.234167,"description":"Sunny; height, one of the eminences on which Jerusalem was built. It was surrounded on all sides, except the north, by deep valleys, that of the Tyropoeon (q.v.) separating it from"},{"id":"recwFUncFiNWPsPWN","type":"place","slug":"dan_323","label":"Dan","subtitle":"Region","count":20,"lat":33.24856,"lon":35.65252,"description":"The fifth son of Jacob. His mother was Bilhah, Rachel’s maid (Gen. 30:6, “God hath judged me”, Heb. dananni). The blessing pronounced on him by his father was, “Dan shall judge his"},{"id":"rec3gWYVMktOUkAzZ","type":"place","slug":"ekron_364","label":"Ekron","subtitle":"City","count":20,"lat":31.7776,"lon":34.85093,"description":"Firm-rooted, the most northerly of the five towns belonging to the lords of the Philistines, about 11 miles north of Gath. It was assigned to Judah (Josh. 13:3), and afterwards to "},{"id":"rec5Yu6987dc60uKz","type":"place","slug":"mount_sinai_855","label":"Mount Sinai","subtitle":"Mountain","count":20,"lat":28.58771,"lon":33.921682,"description":"of Sin (the moon god), called also Horeb, the name of the mountain district which was reached by the Hebrews in the third month after the Exodus. Here they remained encamped for ab"},{"id":"recp2WSSUeSBeg6rV","type":"place","slug":"ramoth-gilead_984","label":"Ramoth-gilead","subtitle":"City","count":20,"lat":32.56526757,"lon":36.00555931,"description":"Heights of Gilead, a city of refuge on the east of Jordan; called “Ramoth in Gilead” (Deut. 4:43; Josh. 20:8; 21:38). Here Ahab, who joined Jehoshaphat in an endeavour to rescue it"},{"id":"receX4PMAVfHZyoCO","type":"place","slug":"susa_1118","label":"Susa","subtitle":"City","count":20,"lat":32.19202,"lon":48.24854,"description":"A lily, the Susa of Greek and Roman writers, once the capital of Elam. It lay in the uplands of Susiana, on the east of the Tigris, about 150 miles to the north of the head of the "},{"id":"rec8hi9Ksp4awz9FJ","type":"place","slug":"tarshish_1139","label":"Tarshish","subtitle":"Place","count":20,"lat":36.95299513,"lon":-6.379340234,"description":"The name of a place which first comes into notice in the days of Solomon. The question as to the locality of Tarshish has given rise to not a little discussion. Some think there wa"},{"id":"recN2YJFW0fYzSL9r","type":"place","slug":"ashdod_101","label":"Ashdod","subtitle":"City","count":19,"lat":31.756038,"lon":34.656061,"description":"Stronghold, a Philistine city (Josh. 15:47), about midway between Gaza and Joppa, and 3 miles from the Mediterranean. It was one of the chief seats of the worship of Dagon (1 Sam. "},{"id":"recNzNKGhPz5qS3Kc","type":"place","slug":"gaza_446","label":"Gaza","subtitle":"City","count":19,"lat":31.503959,"lon":34.46203,"description":"called also Azzah, which is its Hebrew name ( Deuteronomy 2:23 ; 1 Kings 4:24 ; Jeremiah 25:20 ), strong, a city on the Mediterranean shore, remarkable for its early importance as "},{"id":"recyLlsmpRglpazOV","type":"place","slug":"holy_place_574","label":"Holy Place","subtitle":"Place","count":19,"lat":null,"lon":null,"description":"One of the two portions into which the tabernacle was divided (Ex. 26:31; 37:17-25; Heb. 9:2). It was 20 cubits long and 10 in height and breadth. It was illuminated by the golden "},{"id":"recfLFUZyKcrendnV","type":"place","slug":"amalek_53","label":"Amalek","subtitle":"Region","count":18,"lat":30.65977,"lon":34.835554,"description":"A tribe that dwelt in Arabia Petraea, between the Dead Sea and the Red Sea. They were not the descendants of Amalek, the son of Eliphaz, for they existed in the days of Abraham (Ge"},{"id":"recpCMN0bRpzByjaR","type":"place","slug":"asia_108","label":"Asia","subtitle":"Region","count":18,"lat":39.64014749138555,"lon":31.03325453,"description":"is used to denote Proconsular Asia, a Roman province which embraced the western parts of Asia Minor, and of which Ephesus was the capital, in Acts 2:9 ; 6:9 ; 16:6 ; Acts 19:10 Act"},{"id":"rec5WK4QGcKa48pA6","type":"place","slug":"nineveh_899","label":"Nineveh","subtitle":"City","count":18,"lat":36.34773,"lon":43.1609,"description":"First mentioned in Gen. 10:11, which is rendered in the Revised Version, “He [i.e., Nimrod] went forth into Assyria and builded Nineveh.” It is not again noticed till the days of J"},{"id":"rec6V51IWkgvAcnOU","type":"place","slug":"sinai_1098","label":"Sinai","subtitle":"Region","count":18,"lat":29.5,"lon":34,"description":"Of Sin (the moon god), called also Horeb, the name of the mountain district which was reached by the Hebrews in the third month after the Exodus. Here they remained encamped for ab"},{"id":"recocNih6Mr5ISN1d","type":"place","slug":"beth-shemesh_234","label":"Beth-shemesh","subtitle":"City","count":17,"lat":31.73072,"lon":34.99293,"description":"A sacerdotal city in the tribe of Dan (Josh. 21:16; 1 Sam. 6:15), on the north border of Judah (Josh. 15:10). It was the scene of an encounter between Jehoash, king of Israel, and "},{"id":"recBYO9ocr5Gssb47","type":"place","slug":"ephesus_400","label":"Ephesus","subtitle":"City","count":17,"lat":37.941944,"lon":27.339722,"description":"the capital of proconsular Asia, which was the western part of Asia Minor. It was colonized principally from Athens. In the time of the Romans it bore the title of \"the first and g"},{"id":"rectFOmd9oBb0DoQ1","type":"place","slug":"ramah_972","label":"Ramah","subtitle":"City","count":17,"lat":31.89964,"lon":35.20422,"description":"A city first mentioned in Josh. 18:25, near Gibeah of Benjamin. It was fortified by Baasha, king of Israel (1 Kings 15:17-22; 2 Chr. 16:1-6). Asa, king of Judah, employed Benhadad "},{"id":"recPLjuDonDk53ED5","type":"place","slug":"sheba_1067","label":"Sheba","subtitle":"Region","count":17,"lat":9.022736,"lon":38.746799,"description":"Heb. id. A kingdom in Arabia Felix. Sheba, in fact, was Saba in Southern Arabia, the Sabaeans of classical geography, who carried on the trade in spices with the other peoples of t"},{"id":"recKrSp5YmwkgRKv0","type":"place","slug":"caesarea_266","label":"Caesarea","subtitle":"City","count":16,"lat":32.4987775,"lon":34.8912663,"description":"(Palestinae), a city on the shore of the Mediterranean, on the great road from Tyre to Egypt, about 70 miles northwest of Jerusalem, at the northern extremity of the plain of Sharo"},{"id":"recGkTmeTOeg38tLo","type":"place","slug":"capernaum_274","label":"Capernaum","subtitle":"City","count":16,"lat":32.88093,"lon":35.57543,"description":"Nahum’s town, a Galilean city frequently mentioned in the history of our Lord. It is not mentioned in the Old Testament. After our Lord’s expulsion from Nazareth (Matt. 4:13-16; Lu"},{"id":"recaHkhAvEICQr7fB","type":"place","slug":"cush_312","label":"Cush","subtitle":"Region","count":16,"lat":21.959788,"lon":31.343557,"description":"A son, probably the eldest, of Ham, and the father of Nimrod (Gen. 10:8; 1 Chr. 1:10). From him the land of Cush seems to have derived its name. The question of the precise localit"},{"id":"recufFfLnRDrtxLnL","type":"place","slug":"horeb_576","label":"Horeb","subtitle":"Place","count":16,"lat":28.58771,"lon":33.921682,"description":"Desert or mountain of the dried-up ground, a general name for the whole mountain range of which Sinai was one of the summits (Ex. 3:1; 17:6; 33:6; Ps. 106:19, etc.). The modern nam"},{"id":"rec9ygL3vIbmQQtNQ","type":"place","slug":"river_244","label":"River","subtitle":"Region","count":16,"lat":31.777444,"lon":35.234935,"description":"region"},{"id":"recOpGyXVzzKCuVs5","type":"place","slug":"anathoth_63","label":"Anathoth","subtitle":"City","count":15,"lat":31.81291277,"lon":35.26349894,"description":"The name of one of the cities of refuge, in the tribe of Benjamin (Josh. 21:18). The Jews, as a rule, did not change the names of the towns they found in Palestine; hence this town"},{"id":"recWKNRLvmxh9CMku","type":"place","slug":"arabah_79","label":"Arabah","subtitle":"Place","count":15,"lat":32.029676,"lon":35.520995,"description":"Plain, in the Revised Version of 2 Kings 14:25; Josh. 3:16; 8:14; 2 Sam. 2:29; 4:7 (in all these passages the A.V. has “plain”); Amos 6:14 (A.V. “wilderness”). This word is found i"},{"id":"recLIUK6VRKNjnGo6","type":"place","slug":"eden_354","label":"Eden","subtitle":"Region","count":15,"lat":null,"lon":null,"description":"The garden in which our first parents dewlt (Gen. 2:8-17). No geographical question has been so much discussed as that bearing on its site. It has been placed in Armenia, in the re"},{"id":"recbFkcAeBmrPDZvG","type":"place","slug":"kadesh_661","label":"Kadesh","subtitle":"Place","count":15,"lat":30.64805,"lon":34.42261,"description":"Holy, or Kadesh-Barnea, sacred desert of wandering, a place on the south-eastern border of Palestine, about 165 miles from Horeb. It lay in the “wilderness” or “desert of Zin” (Gen"},{"id":"recx87l11nQaxjy4N","type":"place","slug":"keilah_681","label":"Keilah","subtitle":"City","count":15,"lat":31.614175,"lon":35.002752,"description":"Citadel, a city in the lowlands of Judah (Josh. 15:44). David rescued it from the attack of the Philistines (1 Sam. 23:1-8); but the inhabitants proving unfaithful to him, in that "},{"id":"recVYcDguYN6bVqxy","type":"place","slug":"kiriath-jearim_701","label":"Kiriath-jearim","subtitle":"City","count":15,"lat":31.771104,"lon":34.993812,"description":"City, a city belonging to Benjamin (Josh. 18:28), the modern Kuriet el-‘Enab, i.e., “city of grapes”, about 7 1/2 miles west-north-west of Jerusalem."},{"id":"rec5g1fzEKYzCO1Re","type":"place","slug":"libnah_728","label":"Libnah","subtitle":"City","count":15,"lat":31.56485056116292,"lon":34.8467256730566,"description":"One of the royal cities of the Canaanites taken by Joshua (Josh. 10:29-32; 12:15). It became one of the Levitical towns in the tribe of Judah (21:13), and was strongly fortified. S"},{"id":"recKAFuMIt8BAi2OH","type":"place","slug":"antioch_68","label":"Antioch (Syria)","subtitle":"City","count":14,"lat":36.200663,"lon":36.165318,"description":"In Syria, on the river Orontes, about 16 miles from the Mediterranean, and some 300 miles north of Jerusalem. It was the metropolis of Syria, and afterwards became the capital of t"},{"id":"recM9XRLGW2MiGPpZ","type":"place","slug":"elam_365","label":"Elam","subtitle":"Region","count":14,"lat":31.5,"lon":49.5,"description":"Highland, the son of Shem (Gen. 10:22), and the name of the country inhabited by his descendants (14:1, 9; Isa. 11:11; 21:2, etc.) lying to the east of Babylonia, and extending to "},{"id":"recE4R1DFGiDMLM5y","type":"place","slug":"geba_447","label":"Geba","subtitle":"City","count":14,"lat":31.85787804,"lon":35.25975522,"description":"The hill, (2 Sam. 5:25 [1 Chr. 14:16, “Gibeon”]; 2 Kings 23:8; Neh. 11:31), a Levitical city of Benjamin (1 Kings 15:22; 1 Sam. 13:16; 14:5, wrongly “Gibeah” in the A.V.), on the n"},{"id":"recqxkLUTRbyks2qF","type":"place","slug":"gezer_463","label":"Gezer","subtitle":"City","count":14,"lat":31.85958,"lon":34.92048,"description":"A precipice, an ancient royal Canaanitish city (Josh. 10:33; 12:12). It was allotted with its suburbs to the Kohathite Levites (21:21; 1 Chr. 6:67). It stood between the lower Beth"},{"id":"rec6fTlTTEjSOEBsO","type":"place","slug":"holy_place_575","label":"Holy Place","subtitle":"Place","count":14,"lat":31.777444,"lon":35.234935,"description":"One of the two portions into which the tabernacle was divided (Ex. 26:31; 37:17-25; Heb. 9:2). It was 20 cubits long and 10 in height and breadth. It was illuminated by the golden "},{"id":"recIeuZZMsolnZA6n","type":"place","slug":"joppa_652","label":"Joppa","subtitle":"City","count":14,"lat":32.053722,"lon":34.752119,"description":"beauty, a town in the portion of Dan ( Joshua 19:46 ; A.V., \"Japho\"), on a sandy promontory between Caesarea and Gaza, and at a distance of 30 miles north-west from Jerusalem. It i"},{"id":"recq9ttBUfBJW1lhG","type":"place","slug":"rabbah_966","label":"Rabbah","subtitle":"Place","count":14,"lat":31.95522,"lon":35.94503,"description":"“Rabbath of the children of Ammon,” the chief city of the Ammonites, among the eastern hills, some 20 miles east of the Jordan, on the southern of the two streams which united with"},{"id":"recIY9mUBLApR33cG","type":"place","slug":"mahanaim_756","label":"Mahanaim","subtitle":"City","count":13,"lat":32.214708,"lon":35.632914,"description":"Two camps, a place near the Jabbok, beyond Jordan, where Jacob was met by the “angels of God,” and where he divided his retinue into “two hosts” on his return from Padan-aram (Gen."},{"id":"reczeMGDnN4eb0Y28","type":"place","slug":"ramah_975","label":"Ramah","subtitle":"City","count":13,"lat":32.040597,"lon":35.021578,"description":"The same as Ramathaim-zophim (q.v.), a town of Mount Ephraim (1 Sam. 1:1, 19)."},{"id":"recj04aKt1MXd5eDY","type":"place","slug":"tirzah_1170","label":"Tirzah","subtitle":"City","count":13,"lat":32.2713687,"lon":35.29430387,"description":"An old royal city of the Canaanites, which was destroyed by Joshua (Josh. 12:24). Jeroboam chose it for his residence, and he removed to it from Shechem, which at first he made the"},{"id":"recRqzbUZ7i6OPTa1","type":"place","slug":"ammon_58","label":"Ammon","subtitle":"Place","count":12,"lat":31.95522,"lon":35.94503,"description":"The usual name of the descendants of Ammon, the son of Lot (Gen. 19:38). From the very beginning (Deut. 2:16-20) of their history till they are lost sight of (Judg. 5:2), this trib"},{"id":"rec1NgBQ2zMeIsFyT","type":"place","slug":"arnon_92","label":"Arnon","subtitle":"Water","count":12,"lat":31.25,"lon":35.75,"description":"Swift, the southern boundary of the territory of Israel beyond Jordan, separating it from the land of Moab (Deut. 3:8, 16). This river (referred to twenty-four times in the Bible) "},{"id":"receEjvf5hXhkgVuZ","type":"place","slug":"cyprus_316","label":"Cyprus","subtitle":"Island","count":12,"lat":35.040883529816504,"lon":33.27533716,"description":"one of the largest islands of the Mediterranean, about 148 miles long and 40 broad. It is distant about 60 miles from the Syrian coast. It was the \"Chittim\" of the Old Testament ( "},{"id":"recn47IzNNlhvTtXK","type":"place","slug":"great_sea_493","label":"Great Sea","subtitle":"Water","count":12,"lat":36.58019792933332,"lon":17.11536173,"description":"(Joel 2:20; Ezek. 47:18), the Dead Sea, which lay on the east side of the Holy Land. The Mediterranean, which lay on the west, was hence called the “great sea for the west border” "},{"id":"reczL2DzDEB0XnRNv","type":"place","slug":"jabesh-gilead_611","label":"Jabesh-gilead","subtitle":"City","count":12,"lat":32.37982175,"lon":35.61158746,"description":"A town on the east of Jordan, on the top of one of the green hills of Gilead, within the limits of the half tribe of Manasseh, and in full view of Beth-shan. It is first mentioned "},{"id":"recGEuLOhqY6PsgzE","type":"place","slug":"jazer_628","label":"Jazer","subtitle":"City","count":12,"lat":31.94352952,"lon":35.72776961,"description":"He (God) helps, a city of the Amorites on the east of Jordan, and assigned, with neighbouring places in Gilead, to Gad (Num. 32:1, 35; Josh. 13:25). It was allotted to the Merarite"},{"id":"rechSy0aCb5vNVH3f","type":"place","slug":"megiddo_777","label":"Megiddo","subtitle":"City","count":12,"lat":32.58505,"lon":35.18452,"description":"Place of troops, originally one of the royal cities of the Canaanites (Josh. 12:21), belonged to the tribe of Manasseh (Judg. 1:27), but does not seem to have been fully occupied b"},{"id":"recIULA5mLIbFFf63","type":"place","slug":"most_holy_place_827","label":"Most Holy Place","subtitle":"Place","count":12,"lat":31.777444,"lon":35.234935,"description":"One of the two portions into which the tabernacle was divided (Ex. 26:31; 37:17-25; Heb. 9:2). It was 20 cubits long and 10 in height and breadth. It was illuminated by the golden "},{"id":"recO2QKIlo7mlq0by","type":"place","slug":"ziklag_1259","label":"Ziklag","subtitle":"City","count":12,"lat":31.38256,"lon":34.86676,"description":"A town in the Negeb, or south country of Judah (Josh. 15:31), in the possession of the Philistines when David fled to Gath from Ziph with all his followers. Achish, the king, assig"},{"id":"recdjDOceY7iCq93A","type":"place","slug":"ashkelon_103","label":"Ashkelon","subtitle":"City","count":11,"lat":31.66426,"lon":34.54732,"description":"'=Askelon=Ascalon, was one of the five cities of the Philistines (Josh. 13:3; 1 Sam. 6:17). It stood on the shore of the Mediterranean, 12 miles north of Gaza. It is mentioned on a"},{"id":"recLDF53uVzhhlyux","type":"place","slug":"bethany_186","label":"Bethany","subtitle":"City","count":11,"lat":31.77078,"lon":35.26917,"description":"A village on the south-eastern slope of the Mount of Olives (Mark 11:1), about 2 miles east of Jerusalem, on the road to Jericho. It derived its name from the number of palm-trees "},{"id":"recWncFFjf41531kw","type":"place","slug":"goshen_490","label":"Goshen","subtitle":"Region","count":11,"lat":30.72850164,"lon":31.80469224,"description":"A district in Egypt where Jacob and his family settled, and in which they remained till the Exodus (Gen. 45:10; 46:28, 29, 31, etc.). It is called “the land of Goshen” (47:27), and"},{"id":"recCFbPoMSDmIyxXM","type":"place","slug":"hazor_545","label":"Hazor","subtitle":"City","count":11,"lat":33.01746212803129,"lon":35.56813718,"description":"A stronghold of the Canaanites in the mountains north of Lake Merom (Josh. 11:1-5). Jabin the king with his allied tribes here encountered Joshua in a great battle. Joshua gained a"},{"id":"rec5wqkJ6JXv03dvF","type":"place","slug":"mount_of_olives_861","label":"Mount of Olives","subtitle":"Mountain","count":11,"lat":31.77809503,"lon":35.24719761,"description":"So called from the olive trees with which its sides are clothed, is a mountain ridge on the east of Jerusalem (1 Kings 11:7; Ezek. 11:23; Zech. 14:4), from which it is separated by"},{"id":"recwejjn5PDlbkVgH","type":"place","slug":"riblah_1001","label":"Riblah","subtitle":"City","count":11,"lat":34.431703,"lon":36.545259,"description":"Fruitful, an ancient town on the northern frontier of Palestine, 35 miles north-east of Baalbec, and 10 or 12 south of Lake Homs, on the eastern bank of the Orontes, in a wide and "},{"id":"recbv8OwCVWm7wEAK","type":"place","slug":"river_of_arnon_1225","label":"River of Arnon","subtitle":"Water","count":11,"lat":31.4288,"lon":35.677009,"description":"Swift, the southern boundary of the territory of Israel beyond Jordan, separating it from the land of Moab (Deut. 3:8, 16). This river (referred to twenty-four times in the Bible) "},{"id":"recpkvM8CHSklH6RP","type":"place","slug":"zobah_1272","label":"Zobah","subtitle":"Region","count":11,"lat":34.312571,"lon":36.925484,"description":"'=Aram-Zobah, (Ps. 60, title), a Syrian province or kingdom to the south of Coele-Syria, and extending from the eastern slopes of Lebanon north and east toward the Euphrates. Saul "},{"id":"recj2XUqaJxCKA6qs","type":"place","slug":"achaia_16","label":"Achaia","subtitle":"Region","count":10,"lat":37.5,"lon":22.5,"description":"the name originally of a narrow strip of territory in Greece, on the north-west of the Peloponnesus. Subsequently it was applied by the Romans to the whole Peloponnesus, now called"},{"id":"recyuzIRhPm1IFEu0","type":"place","slug":"haran_527","label":"Haran","subtitle":"City","count":10,"lat":36.86,"lon":39.03139,"description":"Heb. haran, i.e., “parched;” or probably from the Accadian charana, meaning “a road.” A celebrated city of Western Asia, now Harran, where Abram remained, after he left Ur of the C"},{"id":"recVfy9PlsXdODNGL","type":"place","slug":"kadesh-barnea_663","label":"Kadesh-barnea","subtitle":"Place","count":10,"lat":30.64805,"lon":34.42261,"description":"Holy, or Kadesh-Barnea, sacred desert of wandering, a place on the south-eastern border of Palestine, about 165 miles from Horeb. It lay in the “wilderness” or “desert of Zin” (Gen"},{"id":"recTOELkXIVkgI0vr","type":"place","slug":"lebo-hamath_723","label":"Lebo-hamath","subtitle":"Place","count":10,"lat":34.19744,"lon":36.34204,"description":""},{"id":"recn5ad7qKvkUdCyZ","type":"place","slug":"mount_hor_842","label":"Mount Hor","subtitle":"Mountain","count":10,"lat":30.3273975,"lon":35.4464006,"description":"One of the mountains of the chain of Seir or Edom, on the confines of Idumea (Num. 20:22-29; 33:37). It was one of the stations of the Israelites in the wilderness (33:37), which t"},{"id":"recE3qR8iDUqdkAuw","type":"place","slug":"mount_seir_852","label":"Mount Seir","subtitle":"Mountain","count":10,"lat":30.734691,"lon":35.60625,"description":"mountain range"},{"id":"recPkpwSKDIF9jQ3T","type":"place","slug":"ophir_911","label":"Ophir","subtitle":"Region","count":10,"lat":27.5,"lon":67.5,"description":"Some region famous for its gold (1 Kings 9:28; 10:11; 22:48; Job 22:24; 28:16; Isa. 13:12). In the LXX. this word is rendered “Sophir,” and “Sofir” is the Coptic name for India, wh"},{"id":"recrEteYtMZW1c46t","type":"place","slug":"paddan-aram_916","label":"Paddan-aram","subtitle":"Place","count":10,"lat":36.86386407659651,"lon":39.03219672227345,"description":"The plain of Aram, or the plain of the highlands, (Gen. 25:20; 28:2, 5-7; 31:18, etc.), commonly regarded as the district of Mesopotamia (q.v.) lying around Haran."},{"id":"recQIJnCSmWgA0ktQ","type":"place","slug":"river_1010","label":"River","subtitle":"Water","count":10,"lat":34.74942377777777,"lon":40.93640094,"description":"An event recorded in Gen. 7 and 8. In Josh. 24:2, 3, 14, 15, the word “flood” (R.V., “river”) means the river Euphrates. In Ps. 66:6, this word refers to the river Jordan."},{"id":"recFcRV7goLrcQm17","type":"place","slug":"succoth_1113","label":"Succoth","subtitle":"City","count":10,"lat":32.19571,"lon":35.62161,"description":"A city on the east of Jordan, identified with Tell Dar’ala, a high mound, a mass of debris, in the plain north of Jabbok and about one mile from it (Josh. 13:27). Here Jacob (Gen. "},{"id":"recAW3NovSbgdfNfk","type":"place","slug":"aijalon_40","label":"Aijalon","subtitle":"City","count":9,"lat":31.844883,"lon":35.031267,"description":"A city in the tribe of Zebulun (Judg. 12:12), the modern Jalun, three miles north of Cabul."},{"id":"recV2VLKz20IKBZ1N","type":"place","slug":"aroer_93","label":"Aroer","subtitle":"City","count":9,"lat":31.47151,"lon":35.821922,"description":"A town on the north bank of the Arnon (Deut. 4:48; Judg. 11:26; 2 Kings 10:33), the southern boundary of the kingdom of Sihon (Josh. 12:2). It is now called Arair, 13 miles west of"},{"id":"reclUs1vGOnRCY78z","type":"place","slug":"chaldea_282","label":"Chaldea","subtitle":"Region","count":9,"lat":30.9620520474569,"lon":46.10374195774169,"description":"The southern portion of Babylonia, Lower Mesopotamia, lying chiefly on the right bank of the Euphrates, but commonly used of the whole of the Mesopotamian plain. The Hebrew name is"},{"id":"reclzdXLmXHPKYAou","type":"place","slug":"debir_325","label":"Debir","subtitle":"Place","count":9,"lat":31.4166696,"lon":34.96667012,"description":""},{"id":"rechszjphdueUPvPi","type":"place","slug":"dibon_331","label":"Dibon","subtitle":"City","count":9,"lat":31.499159,"lon":35.780512,"description":"A city in Moab (Num. 21:30); called also Dibon-gad (33:45), because it was built by Gad and Dimon (Isa. 15:9). It has been identified with the modern Diban, about 3 miles north of "},{"id":"recNwG4bBkZyEhAT4","type":"place","slug":"gerar_459","label":"Gerar","subtitle":"City","count":9,"lat":31.38176,"lon":34.60698,"description":"A region; lodging-place, a very ancient town and district in the south border of Palestine, which was ruled over by a king named Abimelech (Gen. 10:19; 20:1, 2). Abraham sojourned "},{"id":"recLcEDJ7slqAoeKw","type":"place","slug":"geshur_461","label":"Geshur","subtitle":"Region","count":9,"lat":33,"lon":36.41667,"description":"Bridge, the name of a district or principality of Syria near Gilead, between Mount Hermon and the Lake of Tiberias (2 Sam. 15:8; 1 Chr. 2:23). The Geshurites probably inhabited the"},{"id":"recJuXzCbm1TSujll","type":"place","slug":"hormah_580","label":"Hormah","subtitle":"Place","count":9,"lat":30.880918,"lon":34.63062,"description":"Banning; i.e., placing under a “ban,” or devoting to utter destruction. After the manifestation of God’s anger against the Israelites, on account of their rebellion and their murmu"},{"id":"recuBx2LEnNR6q2X3","type":"place","slug":"kedar_674","label":"Kedar","subtitle":"Place","count":9,"lat":27.4,"lon":37.7,"description":"Dark-skinned, the second son of Ishmael (Gen. 25:13). It is the name for the nomadic tribes of Arabs, the Bedouins generally (Isa. 21:16; 42:11; 60:7; Jer. 2:10; Ezek. 27:21), who "},{"id":"rec6G3mRvN9MpCyjT","type":"place","slug":"kedesh_676","label":"Kedesh","subtitle":"City","count":9,"lat":33.11312,"lon":35.52869,"description":"A “fenced city” of Naphtali, one of the cities of refuge (Josh. 19:37; Judg. 4:6). It was assigned to the Gershonite Levites (Josh. 21:32). It was originally a Canaanite royal city"},{"id":"reccf5Vf48NjEXaxz","type":"place","slug":"kidron_687","label":"Kidron","subtitle":"Valley","count":9,"lat":31.826142,"lon":34.775865,"description":"'= Kedron = Cedron, turbid, the winter torrent which flows through the Valley of Jehoshaphat, on the eastern side of Jerusalem, between the city and the Mount of Olives. This valle"},{"id":"recHdRjsxQjhsjW3i","type":"place","slug":"michmash_793","label":"Michmash","subtitle":"City","count":9,"lat":31.871273,"lon":35.27693,"description":"Something hidden, a town of Benjamin (Ezra 2:27), east of Bethel and south of Migron, on the road to Jerusalem (Isa. 10:28). It lay on the line of march of an invading army from th"},{"id":"recDDkVF36ecPUge4","type":"place","slug":"rome_1013","label":"Rome","subtitle":"City","count":9,"lat":41.89262,"lon":12.4843457,"description":"the most celebrated city in the world at the time of Christ. It is said to have been founded B.C. 753. When the New Testament was written, Rome was enriched and adorned with the sp"},{"id":"recN4jruK7QVakoJh","type":"place","slug":"salt_sea_1021","label":"Salt Sea","subtitle":"Water","count":9,"lat":31.577850349494952,"lon":35.52394311,"description":"The name given by Greek writers of the second century to that inland sea called in Scripture the “salt sea” (Gen. 14:3; Num. 34:12), the “sea of the plain” (Deut. 3:17), the “east "},{"id":"reciwuMXIVWYdwnZw","type":"place","slug":"zoar_1271","label":"Zoar","subtitle":"City","count":9,"lat":30.92652253,"lon":35.41906069,"description":"Small, a town on the east or south-east of the Dead Sea, to which Lot and his daughters fled from Sodom (Gen. 19:22, 23). It was originally called Bela (14:2, 8). It is referred to"},{"id":"recTzP6VykOhwetgm","type":"place","slug":"zorah_1275","label":"Zorah","subtitle":"City","count":9,"lat":31.762141,"lon":34.969319,"description":"Place of wasps, a town in the low country of Judah, afterwards given to Dan (Josh. 19:41; Judg. 18:2), probably the same as Zoreah (Josh. 15:33). This was Samson’s birthplace (Judg"},{"id":"recOVVrn4ss5k4zG9","type":"place","slug":"adullam_31","label":"Adullam","subtitle":"City","count":8,"lat":31.657354,"lon":34.999242,"description":"One of the royal cities of the Canaanites, now ‘Aid-el-ma (Josh. 12:15; 15:35). It stood on the old Roman road in the valley of Elah (q.v.), which was the scene of David’s memorabl"},{"id":"recNZWcqhjsNyta44","type":"place","slug":"chebar_283","label":"Chebar","subtitle":"Water","count":8,"lat":33.159129,"lon":44.06293,"description":"Length, a river in the “land of the Chaldeans” (Ezek. 1:3), on the banks of which were located some of the Jews of the Captivity (Ezek. 1:1; 3:15, 23; 10:15, 20, 22). It has been s"},{"id":"rectQcNZqgNSFBmfm","type":"place","slug":"cilicia_300","label":"Cilicia","subtitle":"Region","count":8,"lat":36.91802695356275,"lon":34.89153398422567,"description":"a maritime province in the south-east of Asia Minor. Tarsus, the birth-place of Paul, was one of its chief towns, and the seat of a celebrated school of philosophy. Its luxurious c"},{"id":"recjQ3pJ2xDBU6gtE","type":"place","slug":"edrei_358","label":"Edrei","subtitle":"City","count":8,"lat":32.62413708,"lon":36.09899664,"description":"One of the chief towns of the kingdom of Bashan (Josh. 12:4, 5). Here Og was defeated by the Israelites, and the strength of the Amorites broken (Num. 21:33-35). It subsequently be"},{"id":"recncbaBT6pbrg94B","type":"place","slug":"eglon_361","label":"Eglon","subtitle":"City","count":8,"lat":31.5,"lon":34.7667,"description":"A city in Judah, near Lachish (Josh. 15:39). It was destroyed by Joshua (10:5, 6). It has been identified with Tell Nejileh, 6 miles south of Tell Hesy or Ajlan, north-west of Lach"},{"id":"recMFUSc6GzrLNNtt","type":"place","slug":"egypt_259","label":"Brook of Egypt","subtitle":"Water","count":8,"lat":31.032047,"lon":33.854957,"description":"The land of the Nile and the pyramids, the oldest kingdom of which we have any record, holds a place of great significance in Scripture. The Egyptians belonged to the white race, a"},{"id":"recm3uRahzpZJ7lDk","type":"place","slug":"jabesh_610","label":"Jabesh","subtitle":"Place","count":8,"lat":32.37982175,"lon":35.61158746,"description":"For Jabesh-Gilead (1 Sam. 11:3, 9, 10)."},{"id":"recdU0shMzVelyTiU","type":"place","slug":"jezreel_642","label":"Jezreel","subtitle":"City","count":8,"lat":32.502074,"lon":35.50196,"description":"A town in Judah (Josh. 15:56), to the south-east of Hebron. Ahinoam, one of David’s wives, probably belonged to this place (1 Sam. 27:3)."},{"id":"recnWs5lsA8gKULU4","type":"place","slug":"makkedah_760","label":"Makkedah","subtitle":"City","count":8,"lat":31.935117,"lon":34.781326,"description":"Herdsman’s place, one of the royal cities of the Canaanites (Josh. 12:16), near which was a cave where the five kings who had confederated against Israel sought refuge (10:10-29). "},{"id":"recHQ6dZlDsEgw45z","type":"place","slug":"media_776","label":"Media","subtitle":"Region","count":8,"lat":34.5,"lon":46.5,"description":"Heb. Madai, which is rendered in the Authorized Version (1) “Madai,” Gen. 10:2; (2) “Medes,” 2 Kings 17:6; 18:11; (3) “Media,” Esther 1:3; 10:2; Isa. 21:2; Dan. 8:20; (4) “Mede,” o"},{"id":"recHAv7LzOUc4wj2r","type":"place","slug":"memphis_779","label":"Memphis","subtitle":"City","count":8,"lat":29.849667,"lon":31.254278,"description":"Only in Hos. 9:6, Hebrew Moph. In Isa. 19:13; Jer. 2:16; 46:14, 19; Ezek. 30:13, 16, it is mentioned under the name Noph. It was the capital of Lower, i.e., of Northern Egypt. From"},{"id":"recx2Hj4FohnwbJRY","type":"place","slug":"paran_921","label":"Paran","subtitle":"Place","count":8,"lat":28.717525,"lon":33.609633,"description":"Abounding in foliage, or abounding in caverns, (Gen. 21:21), a desert tract forming the north-eastern division of the peninsula of Sinai, lying between the ‘Arabah on the east and "},{"id":"rechl3VIoaKFb2C9f","type":"place","slug":"shinar_1084","label":"Shinar","subtitle":"Region","count":8,"lat":32.53650368616845,"lon":44.42088287373876,"description":"LXX. and Vulgate “Senaar;” in the inscriptions, “Shumir;” probably identical with Babylonia or Southern Mesopotamia, extending almost to the Persian Gulf. Here the tower of Babel w"},{"id":"recw2errRDhNUlkXl","type":"place","slug":"timnah_1164","label":"Timnah","subtitle":"City","count":8,"lat":31.784368,"lon":34.90968,"description":"A town of Judah (Josh. 15:10). The Philistines took possession of it in the days of Ahaz (2 Chr. 28:18). It was about 20 miles west of Jerusalem. It has been identified with Timnat"},{"id":"rec4usYdsZVP42UId","type":"place","slug":"topheth_1176","label":"Topheth","subtitle":"Place","count":8,"lat":31.769079,"lon":35.227994,"description":""},{"id":"recTdeFWjvLAXs0t3","type":"place","slug":"valley_of_rephaim_1214","label":"Valley of Rephaim","subtitle":"Valley","count":8,"lat":31.756332,"lon":35.223059,"description":"(Josh. 15:8; 18:16, R.V.). When David became king over all Israel, the Philistines, judging that he would now become their uncompromising enemy, made a sudden attack upon Hebron, c"},{"id":"recBsRcVlu8hkiGKW","type":"place","slug":"valley_of_the_son_of_hinnom_1226","label":"Valley of the Son of Hinnom","subtitle":"Valley","count":8,"lat":31.769079,"lon":35.227994,"description":""},{"id":"rec3RF6Fb7wZUoamW","type":"place","slug":"azekah_128","label":"Azekah","subtitle":"City","count":7,"lat":31.70063856,"lon":34.9361859,"description":"Dug over, a town in the Shephelah or low hills of Judah (Josh. 15:35), where the five confederated Amoritish kings were defeated by Joshua and their army destroyed by a hailstrom ("},{"id":"recgAmwf1FZDe8DST","type":"place","slug":"beth-aven_191","label":"Beth-aven","subtitle":"Place","count":7,"lat":31.89571708,"lon":35.25309825,"description":"House of nothingness; i.e., “of idols”, a place in the mountains of Benjamin, east of Bethel (Josh. 7:2; 18:12; 1 Sam. 13:5). In Hos. 4:15; 5:8; 10:5 it stands for “Bethel” (q.v.),"},{"id":"recSx0USOwA2fisi6","type":"place","slug":"beth-horon_214","label":"Beth-horon","subtitle":"City","count":7,"lat":31.879214,"lon":35.124123,"description":"House of the hollow, or of the cavern, the name of two towns or villages (2 Chr. 8:5; 1 Chr. 7:24) in the territory of Ephraim, on the way from Jerusalem to Joppa. They are disting"},{"id":"recntv9dPBMgCWCPD","type":"place","slug":"bethsaida_231","label":"Bethsaida","subtitle":"City","count":7,"lat":32.91031,"lon":35.63067,"description":"A city near which Christ fed 5,000 (Luke 9:10; comp. John 6:17; Matt. 14:15-21), and where the blind man had his sight restored (Mark 8:22), on the east side of the lake, two miles"},{"id":"recIfdlpmLYrfPeAv","type":"place","slug":"bozrah_256","label":"Bozrah","subtitle":"City","count":7,"lat":30.7318,"lon":35.60983,"description":"The city of Jobab, one of the early Edomite kings (Gen. 36:33). This place is mentioned by the prophets in later times (Isa. 34:6; Jer. 49:13; Amos 1:12; Micah 2:12). Its modern re"},{"id":"recdiq65RtvGagXOn","type":"place","slug":"eshtaol_411","label":"Eshtaol","subtitle":"City","count":7,"lat":31.782429,"lon":35.009012,"description":"Narrow pass or recess, a town (Josh. 15:33) in the low country, the She-phelah of Judah. It was allotted to the tribe of Dan (Josh. 19:41), and was one of their strongholds. Here S"},{"id":"recPhbU6SICXKWVJ8","type":"place","slug":"ezion-geber_423","label":"Ezion-geber","subtitle":"City","count":7,"lat":29.530676,"lon":34.999999,"description":"The giant’s backbone (so called from the head of a mountain which runs out into the sea), an ancient city and harbour at the north-east end of the Elanitic branch of the Red Sea, t"},{"id":"recrpaouE7oxrv5jy","type":"place","slug":"hermon_564","label":"Hermon","subtitle":"Mountain","count":7,"lat":33.416111,"lon":35.8575,"description":"A peak, the eastern prolongation of the Anti-Lebanon range, reaching to the height of about 9,200 feet above the Mediterranean. It marks the north boundary of Palestine (Deut. 3:8,"},{"id":"recDmxCwEt4vEy5RQ","type":"place","slug":"jabbok_609","label":"Jabbok","subtitle":"Water","count":7,"lat":32.193237,"lon":35.676305,"description":"A pouring out, or a wrestling, one of the streams on the east of Jordan, into which it falls about midway between the Sea of Galilee and the Dead Sea, or about 45 miles below the S"},{"id":"reccnARM8vn8OfAgg","type":"place","slug":"kiriath-arba_697","label":"Kiriath-arba","subtitle":"Place","count":7,"lat":31.524354,"lon":35.108539,"description":""},{"id":"rec8Dy0OPNtiTqsoS","type":"place","slug":"mesopotamia_790","label":"Mesopotamia","subtitle":"Region","count":7,"lat":32.53650368616845,"lon":44.42088287373876,"description":"the country between the two rivers (Heb. Aram-naharaim; i.e., \"Syria of the two rivers\"), the name given by the Greeks and Romans to the region between the Euphrates and the Tigris"},{"id":"rec1ET3TBR0oBaWJu","type":"place","slug":"mount_hermon_841","label":"Mount Hermon","subtitle":"Mountain","count":7,"lat":33.416111,"lon":35.8575,"description":""},{"id":"recMNg0pz95anDnCU","type":"place","slug":"nebo_883","label":"Nebo","subtitle":"Place","count":7,"lat":31.7677176,"lon":35.7261818,"description":"A Chaldean god whose worship was introduced into Assyria by Pul (Isa. 46:1; Jer. 48:1). To this idol was dedicated the great temple whose ruins are still seen at Birs Nimrud. A sta"},{"id":"recyS1I7gkQt8hvRD","type":"place","slug":"taanach_1124","label":"Taanach","subtitle":"City","count":7,"lat":32.52193,"lon":35.2195,"description":"A sandy place, an ancient royal city of the Canaanites, on the south-western border of the plain of Esdraelon, 4 miles south of Megiddo. Its king was conquered by Joshua (12:21). I"},{"id":"recXsf75sCapsOM68","type":"place","slug":"tekoa_1142","label":"Tekoa","subtitle":"Place","count":7,"lat":31.636092,"lon":35.215353,"description":"Pitching of tents; fastening down, a town of Judah, about 12 miles south of Jerusalem, and visible from the city. From this place Joab procured a “wise woman,” who pretended to be "},{"id":"recM1lN580CYvi2y8","type":"place","slug":"zin_1261","label":"Zin","subtitle":"Region","count":7,"lat":30.68771281376111,"lon":34.49479554246946,"description":"A low palm-tree, the south-eastern corner of the desert et-Tih, the wilderness of Paran, between the Gulf of Akabah and the head of the Wady Guraiyeh (Num. 13:21). To be distinguis"},{"id":"rechfrPEswg8S257T","type":"place","slug":"zoan_1270","label":"Zoan","subtitle":"City","count":7,"lat":30.97461982,"lon":31.88417307,"description":"(Old Egypt. Sant= “stronghold,” the modern San). A city on the Tanitic branch of the Nile, called by the Greeks Tanis. It was built seven years after Hebron in Palestine (Num. 13:2"},{"id":"recCkaxQ22JmTMMcU","type":"place","slug":"ar_77","label":"Ar","subtitle":"Place","count":6,"lat":31.44980942,"lon":35.59395836,"description":""},{"id":"recmCYBlOy0l5D1eB","type":"place","slug":"arabia_80","label":"Arabia","subtitle":"Region","count":6,"lat":27.4,"lon":37.7,"description":"Arabia Petraea, i.e., the Rocky Arabia, so called from its rocky mountains and stony plains. It comprehended all the north-west portion of the country, and is much better known to "},{"id":"recX7O8Nba9reBG0k","type":"place","slug":"aroer_94","label":"Aroer","subtitle":"City","count":6,"lat":31.9617,"lon":35.9115,"description":"One of the towns built by the tribe of Gad (Num. 32:34) “before Rabbah” (Josh. 13:25), the Ammonite capital. It was famous in the history of Jephthah (Judg. 11:33) and of David (2 "},{"id":"recKPPAyXwKEJ9Ht8","type":"place","slug":"arpad_96","label":"Arpad","subtitle":"City","count":6,"lat":36.47229,"lon":37.09471,"description":"(Isa. 10:9; 36:19; 37:13), also Arphad, support, a Syrian city near Hamath, along with which it is invariably mentioned (2 Kings 19:13; 18:34; Isa. 10:9), and Damascus (Jer. 49:23)"},{"id":"recgQ3PF8NjkiBIKf","type":"place","slug":"ashtaroth_106","label":"Ashtaroth","subtitle":"City","count":6,"lat":32.837408,"lon":36.029358,"description":"A city of Bashan, in the kingdom of Og (Deut. 1:4; Josh. 12:4; 13:12; 9:10). It was in the half-tribe of Manasseh (Josh. 13:12), and as a Levitical city was given to the Gershonite"},{"id":"recKVcmD8sW9z9clp","type":"place","slug":"babylonia_152","label":"Babylonia","subtitle":"Region","count":6,"lat":32.5,"lon":44.5,"description":""},{"id":"recrIxQuDpJHk9OiN","type":"place","slug":"bahurim_154","label":"Bahurim","subtitle":"Place","count":6,"lat":31.824736,"lon":35.388486,"description":"Young men, a place east of Jerusalem (2 Sam. 3:16; 19:16), on the road to the Jordan valley. Here Shimei resided, who poured forth vile abuse against David, and flung dust and ston"},{"id":"rec4IK8BRFWJUhjhQ","type":"place","slug":"beeroth_168","label":"Beeroth","subtitle":"City","count":6,"lat":31.90007449,"lon":35.21668801,"description":"Wells, one of the four cities of the Hivites which entered by fraud into a league with Joshua. It belonged to Benjamin (Josh. 18:25). It has by some been identified with el-Bireh o"},{"id":"recQThsW3uau1oxf9","type":"place","slug":"corinth_306","label":"Corinth","subtitle":"City","count":6,"lat":37.906045,"lon":22.878721,"description":"a Grecian city, on the isthmus which joins the Peloponnesus to the mainland of Greece. It is about 48 miles west of Athens. The ancient city was destroyed by the Romans (B.C. 146),"},{"id":"recZNlnoE1DDb6iiz","type":"place","slug":"cyrene_317","label":"Cyrene","subtitle":"City","count":6,"lat":32.818736,"lon":21.856169,"description":"a city (now Tripoli) in Upper Libya, North Africa, founded by a colony of Greeks (B.C. 630). It contained latterly a large number of Jews, who were introduced into the city by Ptol"},{"id":"recNbAdg1hdwN8AmZ","type":"place","slug":"dedan_329","label":"Dedan","subtitle":"Place","count":6,"lat":26.612692,"lon":37.922841,"description":"http://en.wikipedia.org/wiki/Al-%27Ula"},{"id":"recINYRGVbQuConLS","type":"place","slug":"east_348","label":"East","subtitle":"Place","count":6,"lat":31.95018855468469,"lon":35.92413135872749,"description":"The Arabs as a whole, known as the Nabateans or Kedarenes, nomad tribes (Judg. 6:3, 33; 7:12; 8:10)."},{"id":"rec47z6GarT41J5Vh","type":"place","slug":"engedi_389","label":"Engedi","subtitle":"City","count":6,"lat":31.46017,"lon":35.38899,"description":"Fountain of the kid, place in the wilderness of Judah (Josh. 15:62), on the western shore of the Dead Sea (Ezek. 47:10), and nearly equidistant from both extremities. To the wilder"},{"id":"recuiNskL8Wft4eRh","type":"place","slug":"galatia_431","label":"Galatia","subtitle":"Region","count":6,"lat":37.5,"lon":32.5,"description":"has been called the \"Gallia\" of the East, Roman writers calling its inhabitants Galli. They were an intermixture of Gauls and Greeks, and hence were called Gallo-Graeci, and the co"},{"id":"recy6BBIMIGwmihwL","type":"place","slug":"iconium_590","label":"Iconium","subtitle":"City","count":6,"lat":38.1910079,"lon":32.3745104,"description":"the capital of ancient Lycaonia. It was first visited by Paul and Barnabas from Antioch-in-Pisidia during the apostle's first missionary journey ( Acts 13:50 Acts 13:51 ). Here the"},{"id":"recDMTimTdm1RBxd5","type":"place","slug":"jarmuth_624","label":"Jarmuth","subtitle":"City","count":6,"lat":31.70926894,"lon":34.96995387,"description":"A town in the plain of Judah (Josh. 15:35), originally the residence of one of the Canaanitish kings (10:3, 5, 23). It has been identified with the modern Yarmuk, a village about 7"},{"id":"rec2RzCd7Fs9wI07g","type":"place","slug":"laodicea_716","label":"Laodicea","subtitle":"City","count":6,"lat":37.83692,"lon":29.10786,"description":"The city of this name mentioned in Scripture lay on the confines of Phrygia and Lydia, about 40 miles east of Ephesus (Rev. 3:14), on the banks of the Lycus. It was originally call"},{"id":"rec7ux6O0fwgSs7Cw","type":"place","slug":"luz_737","label":"Luz","subtitle":"City","count":6,"lat":31.93053921,"lon":35.22103275,"description":"The ancient name of a royal Canaanitish city near the site of Bethel (Gen. 28:19; 35:6), on the border of Benjamin (Josh. 18:13). Here Jacob halted, and had a prophetic vision."},{"id":"recbm5ZBUjTQ5uAGT","type":"place","slug":"lystra_742","label":"Lystra","subtitle":"City","count":6,"lat":37.60196,"lon":32.33849,"description":"a town of Lycaonia, in Asia Minor, in a wild district and among a rude population. Here Paul preached the gospel after he had been driven by persecution from Iconium ( Acts 14:2-7 "},{"id":"recmEify6uZYLj26E","type":"place","slug":"machpelah_748","label":"Machpelah","subtitle":"Landmark","count":6,"lat":31.52464795,"lon":35.11073465,"description":"Portion; double cave, the cave which Abraham bought, together with the field in which it stood, from Ephron the Hittite, for a family burying-place (Gen. 23). It is one of those Bi"},{"id":"recQea8xEa8yZBFdt","type":"place","slug":"mamre_762","label":"Mamre","subtitle":"Place","count":6,"lat":31.54909872,"lon":35.09356062,"description":"The name of the place in the neighbourhood of Hebron (q.v.) where Abraham dwelt (Gen. 23:17, 19; 35:27); called also in Authorized Version (13:18) the “plain of Mamre,” but in Revi"},{"id":"recEmcEOTObO9ztFB","type":"place","slug":"mareshah_767","label":"Mareshah","subtitle":"City","count":6,"lat":31.592963,"lon":34.898241,"description":"Possession, a city in the plain of Judah (John. 15:44). Here Asa defeated Zerah the Ethiopian (2 Chr. 14:9, 10). It is identified with the ruin el-Mer’ash, about 1 1/2 mile south o"},{"id":"rectMnL1X3mOSYKWV","type":"place","slug":"migdol_799","label":"Migdol","subtitle":"Place","count":6,"lat":30.97269,"lon":32.44456,"description":"A strongly-fortified place 12 miles from Pelusium, in the north of Egypt (Jer. 44:1; 46:14). This word is rendered “tower” in Ezek. 29:10, but the margin correctly retains the name"},{"id":"rec0jxSkEigFIdFqj","type":"place","slug":"millo_802","label":"Millo","subtitle":"Place","count":6,"lat":31.777444,"lon":35.234935,"description":"Probably the Canaanite name of some fortification, consisting of walls filled in with earth and stones, which protected Jerusalem on the north as its outermost defence. It is alway"},{"id":"recOyMgubRhq1yatA","type":"place","slug":"mizpah_809","label":"Mizpah","subtitle":"Place","count":6,"lat":32.56526757,"lon":36.00555931,"description":"A place in Gilead, so named by Laban, who overtook Jacob at this spot (Gen. 31:49) on his return to Palestine from Padan-aram. Here Jacob and Laban set up their memorial cairn of s"},{"id":"rec81kc1ekka6u5Ac","type":"place","slug":"netophah_890","label":"Netophah","subtitle":"City","count":6,"lat":31.735465,"lon":35.220503,"description":"Distillation; dropping, a town in Judah, in the neighbourhood, probably, of Bethlehem (Neh. 7:26; 1 Chr. 2:54). Two of David’s guards were Netophathites (1 Chr. 27:13, 15). It has "},{"id":"recMP5JBFhn8uytTx","type":"place","slug":"nob_900","label":"Nob","subtitle":"City","count":6,"lat":31.799605,"lon":35.23298,"description":"High place, a city of the priests, first mentioned in the history of David’s wanderings (1 Sam. 21:1). Here the tabernacle was then standing, and here Ahimelech the priest resided."},{"id":"recirR7tLEeni78L3","type":"place","slug":"philistia_943","label":"Philistia","subtitle":"Region","count":6,"lat":33.56316734135746,"lon":35.36634649354799,"description":"'=Palestine (q.v.), “the land of the Philistines” (Ps. 60:8; 87:4; 108:9). The word is supposed to mean “the land of wanderers” or “of strangers.”"},{"id":"recZzd6UIbBEJciWQ","type":"place","slug":"saron_1063","label":"Saron","subtitle":"Region","count":6,"lat":32.639068,"lon":34.945929,"description":"a plain, a level tract extending from the Mediterranean to the hill country to the west of Jerusalem, about 30 miles long and from 8 to 15 miles broad, celebrated for its beauty an"},{"id":"recvyjBlyKvcsXhY1","type":"place","slug":"sepharvaim_1050","label":"Sepharvaim","subtitle":"City","count":6,"lat":33.789693,"lon":44.459399,"description":"Taken by Sargon, king of Assyria (2 Kings 17:24; 18:34; 19:13; Isa. 37:13). It was a double city, and received the common name Sepharvaim, i.e., “the two Sipparas,” or “the two boo"},{"id":"recc5WQixfPBowmwE","type":"place","slug":"shephelah_1074","label":"Shephelah","subtitle":"Region","count":6,"lat":31.75,"lon":34.75,"description":"region"},{"id":"recKc1ulr0DPuFTnO","type":"place","slug":"shur_1090","label":"Shur","subtitle":"Place","count":6,"lat":30.2354,"lon":33.247,"description":"An enclosure; a wall, a part, probably, of the Arabian desert, on the north-eastern border of Egypt, giving its name to a wilderness extending from Egypt toward Philistia (Gen. 16:"},{"id":"recgOpQ2YdblYL3Gn","type":"place","slug":"teman_1150","label":"Teman","subtitle":"Region","count":6,"lat":30.203813,"lon":35.732568,"description":"A place in Southern Idumea, the land of “the sons of the east,” frequently mentioned in the Old Testament. It was noted for the wisdom of its inhabitants (Amos 1:12; Obad. 1:8; Jer"},{"id":"recIc4TxQa0rpOszp","type":"place","slug":"thessalonica_1158","label":"Thessalonica","subtitle":"City","count":6,"lat":40.630282,"lon":22.949569,"description":"a large and populous city on the Thermaic bay. It was the capital of one of the four Roman districts of Macedonia, and was ruled by a praetor. It was named after Thessalonica, the "},{"id":"recOEIhMwampGbSqk","type":"place","slug":"troas_1182","label":"Troas","subtitle":"City","count":6,"lat":39.75135,"lon":26.15765,"description":"a city on the coast of Mysia, in the north-west of Asia Minor, named after ancient Troy, which was at some little distance from it (about 4 miles) to the north. Here Paul, on his s"},{"id":"rec8Xwv1TNVXnXwNj","type":"place","slug":"ziph_1266","label":"Ziph","subtitle":"City","count":6,"lat":31.478252,"lon":35.140514,"description":"A city in the mountains of Judah (Josh. 15:55), identified with the uninhabited ruins of Tell ez-Zif, about 5 miles south-east of Hebron. Here David hid himself during his wanderin"},{"id":"recXFAHDB0xkAfYwS","type":"place","slug":"abarim_2","label":"Abarim","subtitle":"Region","count":5,"lat":31.7613578,"lon":35.74614824,"description":"Regions beyond; i.e., on the east of Jordan, a mountain, or rather a mountain-chain, over against Jericho, to the east and south-east of the Dead Sea, in the land of Moab. From “th"},{"id":"recqAEHPEI3gAP9H8","type":"place","slug":"admah_27","label":"Admah","subtitle":"City","count":5,"lat":31.1194227,"lon":35.41253049,"description":"Earth, one of the five cities of the vale of Siddim (Gen. 10:19). It was destroyed along with Sodom and Gomorrah (19:24; Deut. 29:23). It is supposed by some to be the same as the "},{"id":"recjdhKnTnRSPWNUo","type":"place","slug":"aram_82","label":"Aram","subtitle":"Place","count":5,"lat":34.85,"lon":39.12,"description":"The son of Shem (Gen. 10:22); according to Gen. 22:21, a grandson of Nahor. In Matt. 1:3, 4, and Luke 3:33, this word is the Greek form of Ram, the father of Amminadab (1 Chr. 2:10"},{"id":"rec6n0u78dB1QOA1Z","type":"place","slug":"athens_118","label":"Athens","subtitle":"City","count":5,"lat":37.971687,"lon":23.726464,"description":"the capital of Attica, the most celebrated city of the ancient world, the seat of Greek literature and art during the golden period of Grecian history. Its inhabitants were fond of"},{"id":"recWpI3yiVzlUPgnT","type":"place","slug":"beth-shean_233","label":"Beth-shean","subtitle":"City","count":5,"lat":32.50423846,"lon":35.50307739,"description":"House of security or rest, a city which belonged to Manasseh (1 Chr. 7:29), on the west of Jordan. The bodies of Saul and his sons were fastened to its walls. In Solomon’s time it "},{"id":"recXJTt1RtCp5IWJG","type":"place","slug":"corner_gate_307","label":"Corner Gate","subtitle":"Place","count":5,"lat":31.777444,"lon":35.234935,"description":""},{"id":"rec6yittVQwxJlpye","type":"place","slug":"crete_310","label":"Crete","subtitle":"Island","count":5,"lat":35.23102579604995,"lon":24.85162918,"description":"now called Candia, one of the largest islands in the Meditterranean, about 140 miles long and 35 broad. It was at one time a very prosperous and populous island, having a \"hundred "},{"id":"recbaKaeB0APyZYLy","type":"place","slug":"elealeh_368","label":"Elealeh","subtitle":"Place","count":5,"lat":31.813796,"lon":35.824275,"description":"God has ascended, a place in the pastoral country east of Jordan, in the tribe of Reuben (Num. 32:3, 37). It is not again mentioned till the time of Isaiah (15:4; 16:9) and Jeremia"},{"id":"recF7d7nbuyMJEUP2","type":"place","slug":"gibbethon_465","label":"Gibbethon","subtitle":"City","count":5,"lat":31.976623,"lon":35.004896,"description":"A height, a city of the Philistines in the territory of Dan, given to the Kohathites (Josh. 19:44; 21:23). Nadab the king of Israel, while besieging it, was slain under its walls b"},{"id":"recOW0FKyYhhTt7vV","type":"place","slug":"gihon_473","label":"Gihon","subtitle":"Place","count":5,"lat":31.773116,"lon":35.237186,"description":"The only natural spring of water in or near Jerusalem is the “Fountain of the Virgin” (q.v.), which rises outside the city walls on the west bank of the Kidron valley. On the occas"},{"id":"recuNldBULsq0RoMw","type":"place","slug":"gozan_492","label":"Gozan","subtitle":"Region","count":5,"lat":36.840013,"lon":40.06889,"description":"A region in Central Asia to which the Israelites were carried away captive (2 Kings 17:6; 1 Chr. 5:26; 2 Kings 19:12; Isa. 37:12). It was situated in Mesopotamia, on the river Habo"},{"id":"recpmPd6JhbqhqA0Q","type":"place","slug":"greece_495","label":"Greece","subtitle":"Region","count":5,"lat":39.04697922405934,"lon":22.97947876,"description":"orginally consisted of the four provinces of Macedonia, Epirus, Achaia, and Peleponnesus. In Acts 20:2 it designates only the Roman province of Macedonia. Greece was conquered by t"},{"id":"recUD3AjGYUKz6ob7","type":"place","slug":"hazeroth_544","label":"Hazeroth","subtitle":"Place","count":5,"lat":28.916667,"lon":34.5,"description":"Fenced enclosures consisting of “a low wall of stones in which thick bundles of thorny acacia are inserted, the tangled branches and long needle-like spikes forming a perfectly imp"},{"id":"rec5DyQDXpkG4OiFl","type":"place","slug":"jahaz_617","label":"Jahaz","subtitle":"City","count":5,"lat":31.50100309,"lon":35.92063125,"description":"Trodden down (called also Jahaza, Josh. 13:18; Jahazah, 21:36; Jahzah, 1 Chr. 6:78), a town where Sihon was defeated, in the borders of Moab and in the land of the Ammonites beyond"},{"id":"recynQnhWEkUNUZRU","type":"place","slug":"jebus_629","label":"Jebus","subtitle":"City","count":5,"lat":31.777444,"lon":35.234935,"description":"Trodden hard, or fastness, or “the waterless hill”, the name of the Canaanitish city which stood on Mount Zion (Josh. 15:8; 18:16, 28). It is identified with Jerusalem (q.v.) in Ju"},{"id":"rec4yGdQ6cs8KTqMx","type":"place","slug":"kibroth-hattaavah_685","label":"Kibroth-hattaavah","subtitle":"Place","count":5,"lat":28.916667,"lon":34.5,"description":"The graves of the longing or of lust, one of the stations of the Israelites in the wilderness. It was probably in the Wady Murrah, and has been identified with the Erweis el-Ebeiri"},{"id":"receagvMif63k28fg","type":"place","slug":"kir_693","label":"Kir","subtitle":"Place","count":5,"lat":31.1813258,"lon":35.70214779,"description":"A wall or fortress, a place to which Tiglath-pileser carried the Syrians captive after he had taken the city of Damascus (2 Kings 16:9; Amos 1:5; 9:7). Isaiah (22:6), who also was "},{"id":"receKKjJVBBYJWFPx","type":"place","slug":"kiriathaim_695","label":"Kiriathaim","subtitle":"City","count":5,"lat":31.58333333,"lon":35.7,"description":"A town on the east of Jordan (Gen. 14:5; Deut. 2:9, 10). It was assigned to the tribe of Reuben (Num. 32:37). In the time of Ezekiel (25:9) it was one of the four cities which form"},{"id":"recLH8aOU6qflWJw8","type":"place","slug":"kishon_705","label":"Kishon","subtitle":"Water","count":5,"lat":32.761948,"lon":35.064096,"description":"Winding, a winter torrent of Central Palestine, which rises about the roots of Tabor and Gilboa, and passing in a northerly direction through the plains of Esdraelon and Acre, fall"},{"id":"rechN4gu5ltBnuSD2","type":"place","slug":"lebanon_585","label":"Lebanon","subtitle":"Region","count":5,"lat":31.777444,"lon":35.234935,"description":"White, “the white mountain of Syria,” is the loftiest and most celebrated mountain range in Syria. It is a branch running southward from the Caucasus, and at its lower end forking "},{"id":"recM4YMG9qAp6yLP1","type":"place","slug":"medeba_775","label":"Medeba","subtitle":"City","count":5,"lat":31.72045763,"lon":35.79197232,"description":"Waters of quiet, an ancient Moabite town (Num. 21:30). It was assigned to the tribe of Reuben (Josh. 13:16). Here was fought the great battle in which Joab defeated the Ammonites a"},{"id":"recYCmiFv6zLQJNak","type":"place","slug":"meshech_788","label":"Meshech","subtitle":"Place","count":5,"lat":46,"lon":47,"description":"Drawing out, the sixth son of Japheth (Gen. 10:2), the founder of a tribe (1 Chr. 1:5; Ezek. 27:13; 38:2, 3). They were in all probability the Moschi, a people inhabiting the Mosch"},{"id":"recE8QW1xGYrhGwR4","type":"place","slug":"mount_carmel_831","label":"Mount Carmel","subtitle":"Mountain","count":5,"lat":32.72935016,"lon":35.04978957,"description":""},{"id":"rec2YUNAEJFFfYOXk","type":"place","slug":"mount_ebal_832","label":"Mount Ebal","subtitle":"Mountain","count":5,"lat":32.23293814,"lon":35.2730418,"description":"A mountain 3,076 feet above the level of the sea, and 1,200 feet above the level of the valley, on the north side of which stood the city of Shechem (q.v.). On this mountain six of"},{"id":"recLz6oewzzDSKniA","type":"place","slug":"mount_gilboa_837","label":"Mount Gilboa","subtitle":"Mountain","count":5,"lat":32.50984081,"lon":35.4084347,"description":""},{"id":"rec3YlUMCDBYgpxsL","type":"place","slug":"naioth_873","label":"Naioth","subtitle":"Place","count":5,"lat":31.83273947023218,"lon":35.1801628605877,"description":"Dwellings, the name given to the prophetical college established by Samuel near Ramah. It consisted of a cluster of separate dwellings, and hence its name. David took refuge here w"},{"id":"recCnbP6ZTjAmPCnR","type":"place","slug":"ono_909","label":"Ono","subtitle":"City","count":5,"lat":32.02222222,"lon":34.86666667,"description":"A town of Benjamin, in the “plain of Ono” (1 Chr. 8:12; Ezra 2:33); now Kefr ‘Ana, 5 miles north of Lydda, and about 30 miles north-west of Jerusalem. Not succeeding in their attem"},{"id":"recIF1Q0gHP65ziSy","type":"place","slug":"ophel_910","label":"Ophel","subtitle":"Place","count":5,"lat":31.777444,"lon":35.234935,"description":"Hill; mound, the long, narrow, rounded promontory on the southern slope of the temple hill, between the Tyropoeon and the Kedron valley (2 Chr. 27:3; 33:14; Neh. 3:26, 27). It was "},{"id":"rec8SNX7XoTfkfbY1","type":"place","slug":"ophrah_914","label":"Ophrah","subtitle":"City","count":5,"lat":32.6086827,"lon":35.28826433,"description":"“Of the Abi-ezrites.” A city of Manasseh, 6 miles south-west of Shechem, the residence of Gideon (Judg. 6:11; 8:27, 32). After his great victory over the Midianites, he slew at thi"},{"id":"reczIMmvXFugsrx16","type":"place","slug":"pamphylia_918","label":"Pamphylia","subtitle":"Region","count":5,"lat":36.990721,"lon":30.98638,"description":"Paul and his company, loosing from Paphos, sailed north-west and came to Perga, the capital of Pamphylia ( Acts 13:13 Acts 13:14 ), a province about the middle of the southern sea-"},{"id":"recDNs67M688WYwUI","type":"place","slug":"pathros_925","label":"Pathros","subtitle":"Region","count":5,"lat":28.322364,"lon":30.692312,"description":"The name generally given to Upper Egypt (the Thebaid of the Greeks), as distinguished from Matsor, or Lower Egypt (Isa. 11:11; Jer. 44:1, 15; Ezek. 30:14), the two forming Mizraim."},{"id":"recKsSsPEDA3H2QXE","type":"place","slug":"penuel_931","label":"Penuel","subtitle":"City","count":5,"lat":32.18437278,"lon":35.70287003,"description":"Face of God, a place not far from Succoth, on the east of the Jordan and north of the river Jabbok. It is also called “Peniel.” Here Jacob wrestled (Gen. 32:24-32) “with a man” (“t"},{"id":"rec0YWbwVkA7RQKBw","type":"place","slug":"pisgah_950","label":"Pisgah","subtitle":"Place","count":5,"lat":31.7650313,"lon":35.71856576,"description":"A part, a mountain summit in the land of Moab, in the territory of Reuben, where Balak offered up sacrifices (Num. 21:20; 23:14), and from which Moses viewed the promised land (Deu"},{"id":"recop6QEHQoHhwytR","type":"place","slug":"rephidim_996","label":"Rephidim","subtitle":"Place","count":5,"lat":28.73106103,"lon":33.84169996,"description":"Supports, one of the stations of the Israelites, situated in the Wady Feiran, near its junction with the Wady esh-Sheikh. Here no water could be found for the people to drink, and "},{"id":"recRe6uBpPMDP6u82","type":"place","slug":"sea_of_galilee_1032","label":"Sea of Galilee","subtitle":"Water","count":5,"lat":32.8138046,"lon":35.590564,"description":"John (6:1; 21:1) calls it the “sea of Tiberias” (q.v.). The modern Arabs retain this name, Bahr Tabariyeh. This lake is 12 1/2 miles long, and from 4 to 7 1/2 broad. Its surface is"},{"id":"recesqn5JDm6ZwKE5","type":"place","slug":"sibmah_1091","label":"Sibmah","subtitle":"City","count":5,"lat":31.815283,"lon":35.766738,"description":"Coolness; fragrance, a town in Reuben, in the territory of Moab, on the east of Jordan (Josh. 13:19); called also Shebam and Shibmah (Num. 32:3, 38). It was famous for its vines (I"},{"id":"recmyzVBdbLEBB0Y0","type":"place","slug":"tabor_1128","label":"Tabor (Mountain)","subtitle":"Mountain","count":5,"lat":32.687114,"lon":35.390383,"description":"Now Jebel et-Tur, a cone-like prominent mountain, 11 miles west of the Sea of Galilee. It is about 1,843 feet high. The view from the summit of it is said to be singularly extensiv"},{"id":"rec7RMIt09whPuuSU","type":"place","slug":"tahpanhes_1133","label":"Tahpanhes","subtitle":"Place","count":5,"lat":30.860556,"lon":32.171389,"description":"http://en.wikipedia.org/wiki/Tahpanhes"},{"id":"recyT2hLNYpIFXcAs","type":"place","slug":"tarsus_1140","label":"Tarsus","subtitle":"City","count":5,"lat":36.91242,"lon":34.89592,"description":"the chief city of Cilicia. It was distinguished for its wealth and for its schools of learning, in which it rivalled, nay, excelled even Athens and Alexandria, and hence was spoken"}]
